{"businesses": [{"id": "qA4zDuSQhWL3jU4TBbwKkw", "alias": "haute-cuisine-catering-sunnyvale", "name": "Haute Cuisine Catering", "image_url": "https://s3-media3.fl.yelpcdn.com/bphoto/4SN9GlcU5L11ItsKEdWZ7g/o.jpg", "is_closed": false, "url": "https://www.yelp.com/biz/haute-cuisine-catering-sunnyvale?adjust_creative=RbHAajSUNYKtX3IC6wzFGQ&utm_campaign=yelp_api_v3&utm_medium=api_v3_business_search&utm_source=RbHAajSUNYKtX3IC6wzFGQ", "review_count": 136, "categories": [{"alias": "catering", "title": "Caterers"}, {"alias": "eventplanning", "title": "Party & Event Planning"}], "rating": 4.9, "coordinates": {"latitude": 37.35770967882639, "longitude": -122.0263162843654}, "transactions": ["pickup", "delivery"], "location": {"address1": "550 E Remington Dr", "address2": "", "address3": null, "city": "Sunnyvale", "zip_code": "94087", "country": "US", "state": "CA", "display_address": ["550 E Remington Dr", "Sunnyvale, CA 94087"]}, "phone": "+14086852058", "display_phone": "(408) 685-2058", "distance": 5301.911390238852}, {"id": "7jidkejbcWaRsPhquW56lQ", "alias": "le-papillon-san-jose", "name": "Le Papillon", "image_url": "https://s3-media3.fl.yelpcdn.com/bphoto/_VGkXA7Z_dlxi2jlRa98Lg/o.jpg", "is_closed": false, "url": "https://www.yelp.com/biz/le-papillon-san-jose?adjust_creative=RbHAajSUNYKtX3IC6wzFGQ&utm_campaign=yelp_api_v3&utm_medium=api_v3_business_search&utm_source=RbHAajSUNYKtX3IC6wzFGQ", "review_count": 1220, "categories": [{"alias": "french", "title": "French"}], "rating": 4.2, "coordinates": {"latitude": 37.31975, "longitude": -121.97232}, "transactions": ["pickup"], "price": "$$$$", "location": {"address1": "410 Saratoga Ave", "address2": "", "address3": "", "city": "San Jose", "zip_code": "95129", "country": "US", "state": "CA", "display_address": ["410 Saratoga Ave", "San Jose, CA 95129"]}, "phone": "+14082963730", "display_phone": "(408) 296-3730", "distance": 4569.835793277542}, {"id": "LszQYFCUeN5rIcKeBznG9Q", "alias": "culinary-excellence-catering-oakland", "name": "Culinary Excellence Catering", "image_url": "https://s3-media2.fl.yelpcdn.com/bphoto/mI2jLtURAH98ZGwxipMcJA/o.jpg", "is_closed": false, "url": "https://www.yelp.com/biz/culinary-excellence-catering-oakland?adjust_creative=RbHAajSUNYKtX3IC6wzFGQ&utm_campaign=yelp_api_v3&utm_medium=api_v3_business_search&utm_source=RbHAajSUNYKtX3IC6wzFGQ", "review_count": 226, "categories": [{"alias": "catering", "title": "Caterers"}], "rating": 4.9, "coordinates": {"latitude": 37.7377786, "longitude": -122.2021701}, "transactions": [], "location": {"address1": "8210 Capwell Dr", "address2": "", "address3": "", "city": "Oakland", "zip_code": "94621", "country": "US", "state": "CA", "display_address": ["8210 Capwell Dr", "Oakland, CA 94621"]}, "phone": "+15106440612", "display_phone": "(510) 644-0612", "distance": 46807.12864515043}, {"id": "hJOdedSVDNbzb3OsdAO-BQ", "alias": "shosha-sunnyvale-2", "name": "Shosha", "image_url": "https://s3-media4.fl.yelpcdn.com/bphoto/K5Ctk9V82SeJQYlyeVuENA/o.jpg", "is_closed": false, "url": "https://www.yelp.com/biz/shosha-sunnyvale-2?adjust_creative=RbHAajSUNYKtX3IC6wzFGQ&utm_campaign=yelp_api_v3&utm_medium=api_v3_business_search&utm_source=RbHAajSUNYKtX3IC6wzFGQ", "review_count": 482, "categories": [{"alias": "indpak", "title": "Indian"}, {"alias": "cocktailbars", "title": "Cocktail Bars"}, {"alias": "catering", "title": "Caterers"}], "rating": 3.5, "coordinates": {"latitude": 37.37697, "longitude": -122.03043}, "transactions": ["pickup", "delivery", "restaurant_reservation"], "price": "$$", "location": {"address1": "141 S Murphy Ave", "address2": null, "address3": "", "city": "Sunnyvale", "zip_code": "94086", "country": "US", "state": "CA", "display_address": ["141 S Murphy Ave", "Sunnyvale, CA 94086"]}, "phone": "+16693334432", "display_phone": "(669) 333-4432", "distance": 5942.7751527512155}, {"id": "ZYGMLW_biN_XMwdUo_90Jg", "alias": "\u00e9lyse-restaurant-san-jose-2", "name": "\u00c9lyse Restaurant", "image_url": "https://s3-media4.fl.yelpcdn.com/bphoto/CCWnyWwFqVHVSagJcLo00Q/o.jpg", "is_closed": false, "url": "https://www.yelp.com/biz/%C3%A9lyse-restaurant-san-jose-2?adjust_creative=RbHAajSUNYKtX3IC6wzFGQ&utm_campaign=yelp_api_v3&utm_medium=api_v3_business_search&utm_source=RbHAajSUNYKtX3IC6wzFGQ", "review_count": 451, "categories": [{"alias": "french", "title": "French"}, {"alias": "vietnamese", "title": "Vietnamese"}, {"alias": "cocktailbars", "title": "Cocktail Bars"}], "rating": 4.3, "coordinates": {"latitude": 37.334566, "longitude": -121.889148}, "transactions": ["delivery", "restaurant_reservation"], "price": "$$", "location": {"address1": "96 S 1st St", "address2": "", "address3": null, "city": "San Jose", "zip_code": "95113", "country": "US", "state": "CA", "display_address": ["96 S 1st St", "San Jose, CA 95113"]}, "phone": "+14088992762", "display_phone": "(408) 899-2762", "distance": 7407.255041207474}], "total": 13, "region": {"center": {"longitude": -121.96643829345703, "latitude": 37.36059569170822}}}