{"businesses": [{"id": "LIFLE6Z5jXi5zIlmldrYBA", "alias": "sals-airport-and-limousine-service-santa-clara-2", "name": "Sal's Airport & Limousine Service", "image_url": "https://s3-media2.fl.yelpcdn.com/bphoto/vkn7wVtYdCfEBS-kJZZiTQ/o.jpg", "is_closed": false, "url": "https://www.yelp.com/biz/sals-airport-and-limousine-service-santa-clara-2?adjust_creative=RbHAajSUNYKtX3IC6wzFGQ&utm_campaign=yelp_api_v3&utm_medium=api_v3_business_search&utm_source=RbHAajSUNYKtX3IC6wzFGQ", "review_count": 318, "categories": [{"alias": "limos", "title": "Limos"}, {"alias": "airport_shuttles", "title": "Airport Shuttles"}, {"alias": "partybusrentals", "title": "Party Bus Rentals"}], "rating": 5.0, "coordinates": {"latitude": 37.369441, "longitude": -121.955799}, "transactions": [], "location": {"address1": "1180 Walsh Ave", "address2": "", "address3": "", "city": "Santa Clara", "zip_code": "95050", "country": "US", "state": "CA", "display_address": ["1180 Walsh Ave", "Santa Clara, CA 95050"]}, "phone": "+14087331275", "display_phone": "(408) 733-1275", "distance": 1362.310443768988}, {"id": "GjJQo9JYlZ7VIHJsJviV3w", "alias": "charmed-limousine-service-sunnyvale-2", "name": "Charmed Limousine Service", "image_url": "https://s3-media3.fl.yelpcdn.com/bphoto/SCejDLDfyI4RboQHdimdbA/o.jpg", "is_closed": false, "url": "https://www.yelp.com/biz/charmed-limousine-service-sunnyvale-2?adjust_creative=RbHAajSUNYKtX3IC6wzFGQ&utm_campaign=yelp_api_v3&utm_medium=api_v3_business_search&utm_source=RbHAajSUNYKtX3IC6wzFGQ", "review_count": 161, "categories": [{"alias": "limos", "title": "Limos"}, {"alias": "winetours", "title": "Wine Tours"}], "rating": 5.0, "coordinates": {"latitude": 37.3835359, "longitude": -121.9953374}, "transactions": [], "location": {"address1": "530 Lawrence Expy", "address2": "Ste 300", "address3": "", "city": "Sunnyvale", "zip_code": "94085", "country": "US", "state": "CA", "display_address": ["530 Lawrence Expy", "Ste 300", "Sunnyvale, CA 94085"]}, "phone": "+14082427654", "display_phone": "(408) 242-7654", "distance": 3609.483229152934}, {"id": "tV3-XJu1IK0-t7gf56YY5w", "alias": "service-rent-a-car-san-jose-4", "name": "Service Rent A Car", "image_url": "https://s3-media1.fl.yelpcdn.com/bphoto/-xMALBxAq7oN_52-yQYP7w/o.jpg", "is_closed": false, "url": "https://www.yelp.com/biz/service-rent-a-car-san-jose-4?adjust_creative=RbHAajSUNYKtX3IC6wzFGQ&utm_campaign=yelp_api_v3&utm_medium=api_v3_business_search&utm_source=RbHAajSUNYKtX3IC6wzFGQ", "review_count": 138, "categories": [{"alias": "carrental", "title": "Car Rental"}], "rating": 4.5, "coordinates": {"latitude": 37.3255479704079, "longitude": -121.882480359772}, "transactions": [], "location": {"address1": "698 S 1st St", "address2": "", "address3": "", "city": "San Jose", "zip_code": "95113", "country": "US", "state": "CA", "display_address": ["698 S 1st St", "San Jose, CA 95113"]}, "phone": "+14082926351", "display_phone": "(408) 292-6351", "distance": 8382.969852987886}, {"id": "2krwXlEu9i8lqCPBzYLuZw", "alias": "corinthian-transportation-campbell", "name": "Corinthian Transportation", "image_url": "https://s3-media1.fl.yelpcdn.com/bphoto/Wi2oGMvhHpD7Er1OhezMpw/o.jpg", "is_closed": false, "url": "https://www.yelp.com/biz/corinthian-transportation-campbell?adjust_creative=RbHAajSUNYKtX3IC6wzFGQ&utm_campaign=yelp_api_v3&utm_medium=api_v3_business_search&utm_source=RbHAajSUNYKtX3IC6wzFGQ", "review_count": 196, "categories": [{"alias": "limos", "title": "Limos"}, {"alias": "airport_shuttles", "title": "Airport Shuttles"}, {"alias": "buses", "title": "Buses"}], "rating": 4.5, "coordinates": {"latitude": 37.270072, "longitude": -121.9536657}, "transactions": [], "location": {"address1": "2990 S Winchester Blvd", "address2": "", "address3": "", "city": "Campbell", "zip_code": "95008", "country": "US", "state": "CA", "display_address": ["2990 S Winchester Blvd", "Campbell, CA 95008"]}, "phone": "+14083775466", "display_phone": "(408) 377-5466", "distance": 10128.941772753406}, {"id": "I_UARF3mJrLqQHA2dJWEXw", "alias": "tahoe-ski-trips-pacheco-2", "name": "Tahoe Ski Trips", "image_url": "https://s3-media2.fl.yelpcdn.com/bphoto/hOrPv6uUIls3dXStu-4PLA/o.jpg", "is_closed": false, "url": "https://www.yelp.com/biz/tahoe-ski-trips-pacheco-2?adjust_creative=RbHAajSUNYKtX3IC6wzFGQ&utm_campaign=yelp_api_v3&utm_medium=api_v3_business_search&utm_source=RbHAajSUNYKtX3IC6wzFGQ", "review_count": 83, "categories": [{"alias": "skiresorts", "title": "Ski Resorts"}, {"alias": "tours", "title": "Tours"}, {"alias": "transport", "title": "Transportation"}], "rating": 4.5, "coordinates": {"latitude": 37.9911292, "longitude": -122.071562}, "transactions": [], "location": {"address1": "419 N Buchanan Cir", "address2": "Ste 9", "address3": null, "city": "Pacheco", "zip_code": "94553", "country": "US", "state": "CA", "display_address": ["419 N Buchanan Cir", "Ste 9", "Pacheco, CA 94553"]}, "phone": "", "display_phone": "", "distance": 70699.52378773363}, {"id": "3KZvFi0OHyn82FYXwjoplw", "alias": "enterprise-rent-a-car-santa-clara", "name": "Enterprise Rent-A-Car", "image_url": "https://s3-media3.fl.yelpcdn.com/bphoto/rmomq00fg3wSJFqJJA8tow/o.jpg", "is_closed": false, "url": "https://www.yelp.com/biz/enterprise-rent-a-car-santa-clara?adjust_creative=RbHAajSUNYKtX3IC6wzFGQ&utm_campaign=yelp_api_v3&utm_medium=api_v3_business_search&utm_source=RbHAajSUNYKtX3IC6wzFGQ", "review_count": 164, "categories": [{"alias": "carrental", "title": "Car Rental"}], "rating": 4.0, "coordinates": {"latitude": 37.3234278761356, "longitude": -121.986286640167}, "transactions": [], "location": {"address1": "4785 Stevens Creek Blvd", "address2": "", "address3": "", "city": "Santa Clara", "zip_code": "95051", "country": "US", "state": "CA", "display_address": ["4785 Stevens Creek Blvd", "Santa Clara, CA 95051"]}, "phone": "+14082462100", "display_phone": "(408) 246-2100", "distance": 4489.923341047986}, {"id": "STlGN78IsC35WrOIVkZ9jw", "alias": "hyatt-house-san-jose-silicon-valley-san-jose-2", "name": "Hyatt House San Jose/Silicon Valley", "image_url": "https://s3-media3.fl.yelpcdn.com/bphoto/Sx9VVWJmFkGUtTMCOiXYLQ/o.jpg", "is_closed": false, "url": "https://www.yelp.com/biz/hyatt-house-san-jose-silicon-valley-san-jose-2?adjust_creative=RbHAajSUNYKtX3IC6wzFGQ&utm_campaign=yelp_api_v3&utm_medium=api_v3_business_search&utm_source=RbHAajSUNYKtX3IC6wzFGQ", "review_count": 144, "categories": [{"alias": "hotels", "title": "Hotels"}], "rating": 4.0, "coordinates": {"latitude": 37.4165, "longitude": -121.95296}, "transactions": [], "price": "$$", "location": {"address1": "75 Headquarters Dr", "address2": "", "address3": "", "city": "San Jose", "zip_code": "95134", "country": "US", "state": "CA", "display_address": ["75 Headquarters Dr", "San Jose, CA 95134"]}, "phone": "+14083241155", "display_phone": "(408) 324-1155", "distance": 6336.644353557532}, {"id": "q4p0qg6dfIGmWW32c-yNZQ", "alias": "quality-assurance-travel-santa-clara-2", "name": "Quality Assurance Travel", "image_url": "https://s3-media4.fl.yelpcdn.com/bphoto/pnWdqXg_UPizHEbd7pcrYw/o.jpg", "is_closed": false, "url": "https://www.yelp.com/biz/quality-assurance-travel-santa-clara-2?adjust_creative=RbHAajSUNYKtX3IC6wzFGQ&utm_campaign=yelp_api_v3&utm_medium=api_v3_business_search&utm_source=RbHAajSUNYKtX3IC6wzFGQ", "review_count": 122, "categories": [{"alias": "buses", "title": "Buses"}, {"alias": "busrental", "title": "Bus Rental"}], "rating": 4.0, "coordinates": {"latitude": 37.38076, "longitude": -121.95722}, "transactions": [], "location": {"address1": "1585 Laurelwood Rd", "address2": "", "address3": "", "city": "Santa Clara", "zip_code": "95054", "country": "US", "state": "CA", "display_address": ["1585 Laurelwood Rd", "Santa Clara, CA 95054"]}, "phone": "+14088728483", "display_phone": "(408) 872-8483", "distance": 2379.0766425459924}, {"id": "LhvbVDDugLok_JkSH6OmfA", "alias": "san-jos\u00e9-mineta-international-airport-san-jose", "name": "San Jos\u00e9 Mineta International Airport", "image_url": "https://s3-media4.fl.yelpcdn.com/bphoto/kkhgvJDVx3UdYZavNno00A/o.jpg", "is_closed": false, "url": "https://www.yelp.com/biz/san-jos%C3%A9-mineta-international-airport-san-jose?adjust_creative=RbHAajSUNYKtX3IC6wzFGQ&utm_campaign=yelp_api_v3&utm_medium=api_v3_business_search&utm_source=RbHAajSUNYKtX3IC6wzFGQ", "review_count": 2283, "categories": [{"alias": "airports", "title": "Airports"}], "rating": 3.5, "coordinates": {"latitude": 37.364104370102304, "longitude": -121.92893701992296}, "transactions": [], "location": {"address1": "1701 Airport Blvd", "address2": "Ste B-1130", "address3": "", "city": "San Jose", "zip_code": "95110", "country": "US", "state": "CA", "display_address": ["1701 Airport Blvd", "Ste B-1130", "San Jose, CA 95110"]}, "phone": "+14083923600", "display_phone": "(408) 392-3600", "distance": 3337.2142961345953}, {"id": "ONg16hbHi8j1uITxIeQRZQ", "alias": "hotel-valencia-santana-row-san-jose", "name": "Hotel Valencia Santana Row", "image_url": "https://s3-media2.fl.yelpcdn.com/bphoto/1IhUNyZG8sE_j3HJjSuQzw/o.jpg", "is_closed": false, "url": "https://www.yelp.com/biz/hotel-valencia-santana-row-san-jose?adjust_creative=RbHAajSUNYKtX3IC6wzFGQ&utm_campaign=yelp_api_v3&utm_medium=api_v3_business_search&utm_source=RbHAajSUNYKtX3IC6wzFGQ", "review_count": 761, "categories": [{"alias": "hotels", "title": "Hotels"}, {"alias": "venues", "title": "Venues & Event Spaces"}], "rating": 3.5, "coordinates": {"latitude": 37.32095, "longitude": -121.94808}, "transactions": [], "price": "$$", "location": {"address1": "355 Santana Row", "address2": "", "address3": "", "city": "San Jose", "zip_code": "95128", "country": "US", "state": "CA", "display_address": ["355 Santana Row", "San Jose, CA 95128"]}, "phone": "+14085510010", "display_phone": "(408) 551-0010", "distance": 4710.960568739603}, {"id": "BSlEb9thw9b0s66Y9ZL-OA", "alias": "enterprise-rent-a-car-san-jose-25", "name": "Enterprise Rent-A-Car", "image_url": "https://s3-media1.fl.yelpcdn.com/bphoto/XcyXwQeXsw6UUcnpMOUQCA/o.jpg", "is_closed": false, "url": "https://www.yelp.com/biz/enterprise-rent-a-car-san-jose-25?adjust_creative=RbHAajSUNYKtX3IC6wzFGQ&utm_campaign=yelp_api_v3&utm_medium=api_v3_business_search&utm_source=RbHAajSUNYKtX3IC6wzFGQ", "review_count": 319, "categories": [{"alias": "carrental", "title": "Car Rental"}], "rating": 3.5, "coordinates": {"latitude": 37.3649080640886, "longitude": -121.922636747622}, "transactions": [], "location": {"address1": "1659 Airport Blvd", "address2": "Ste 5", "address3": "", "city": "San Jose", "zip_code": "95110", "country": "US", "state": "CA", "display_address": ["1659 Airport Blvd", "Ste 5", "San Jose, CA 95110"]}, "phone": "+18338135264", "display_phone": "(833) 813-5264", "distance": 3900.7075527459624}, {"id": "iV-yv1Tqe69TxAay321q6w", "alias": "towneplace-suites-by-marriott-san-jose-cupertino-san-jose", "name": "TownePlace Suites by Marriott San Jose Cupertino", "image_url": "https://s3-media1.fl.yelpcdn.com/bphoto/26UXqU9nZu5VGpowzcNTKA/o.jpg", "is_closed": false, "url": "https://www.yelp.com/biz/towneplace-suites-by-marriott-san-jose-cupertino-san-jose?adjust_creative=RbHAajSUNYKtX3IC6wzFGQ&utm_campaign=yelp_api_v3&utm_medium=api_v3_business_search&utm_source=RbHAajSUNYKtX3IC6wzFGQ", "review_count": 60, "categories": [{"alias": "hotels", "title": "Hotels"}], "rating": 3.5, "coordinates": {"latitude": 37.31955, "longitude": -121.97216}, "transactions": [], "price": "$$", "location": {"address1": "440 Saratoga Ave", "address2": "", "address3": "", "city": "San Jose", "zip_code": "95129", "country": "US", "state": "CA", "display_address": ["440 Saratoga Ave", "San Jose, CA 95129"]}, "phone": "+14089845903", "display_phone": "(408) 984-5903", "distance": 4592.931769983149}, {"id": "F5y2uHP08gSJjjQoynXRAQ", "alias": "enterprise-rent-a-car-santa-clara-10", "name": "Enterprise Rent-A-Car", "image_url": "https://s3-media2.fl.yelpcdn.com/bphoto/1fNqUEr2GO4lfJMluMDFJQ/o.jpg", "is_closed": false, "url": "https://www.yelp.com/biz/enterprise-rent-a-car-santa-clara-10?adjust_creative=RbHAajSUNYKtX3IC6wzFGQ&utm_campaign=yelp_api_v3&utm_medium=api_v3_business_search&utm_source=RbHAajSUNYKtX3IC6wzFGQ", "review_count": 50, "categories": [{"alias": "carrental", "title": "Car Rental"}], "rating": 3.5, "coordinates": {"latitude": 37.36949373558553, "longitude": -121.94217327282784}, "transactions": [], "location": {"address1": "2752 De La Cruz Blvd", "address2": "", "address3": "", "city": "Santa Clara", "zip_code": "95050", "country": "US", "state": "CA", "display_address": ["2752 De La Cruz Blvd", "Santa Clara, CA 95050"]}, "phone": "+14085909935", "display_phone": "(408) 590-9935", "distance": 2361.691571452469}, {"id": "FZAGLrYUrlVhf2qDDXms3Q", "alias": "wild-palms-hotel-sunnyvale-2", "name": "Wild Palms Hotel", "image_url": "https://s3-media3.fl.yelpcdn.com/bphoto/MXTHKpD_QJBbEqKmJKHf7A/o.jpg", "is_closed": false, "url": "https://www.yelp.com/biz/wild-palms-hotel-sunnyvale-2?adjust_creative=RbHAajSUNYKtX3IC6wzFGQ&utm_campaign=yelp_api_v3&utm_medium=api_v3_business_search&utm_source=RbHAajSUNYKtX3IC6wzFGQ", "review_count": 328, "categories": [{"alias": "hotels", "title": "Hotels"}], "rating": 3.5, "coordinates": {"latitude": 37.3514409, "longitude": -122.0137145}, "transactions": [], "price": "$$", "location": {"address1": "910 East Fremont Avenue", "address2": "", "address3": "", "city": "Sunnyvale", "zip_code": "94087", "country": "US", "state": "CA", "display_address": ["910 East Fremont Avenue", "Sunnyvale, CA 94087"]}, "phone": "+14087380500", "display_phone": "(408) 738-0500", "distance": 4300.791541360043}, {"id": "mmpGFR4lV6iiykU2XIKB3A", "alias": "winchester-mystery-house-san-jose", "name": "Winchester Mystery House", "image_url": "https://s3-media2.fl.yelpcdn.com/bphoto/Rr2gpylnPBHYxJMQQXQs-A/o.jpg", "is_closed": false, "url": "https://www.yelp.com/biz/winchester-mystery-house-san-jose?adjust_creative=RbHAajSUNYKtX3IC6wzFGQ&utm_campaign=yelp_api_v3&utm_medium=api_v3_business_search&utm_source=RbHAajSUNYKtX3IC6wzFGQ", "review_count": 2314, "categories": [{"alias": "museums", "title": "Museums"}, {"alias": "hauntedhouses", "title": "Haunted Houses"}, {"alias": "historicaltours", "title": "Historical Tours"}], "rating": 3.5, "coordinates": {"latitude": 37.31833228840816, "longitude": -121.95105000252556}, "transactions": [], "location": {"address1": "525 S Winchester Blvd", "address2": "", "address3": "", "city": "San Jose", "zip_code": "95128", "country": "US", "state": "CA", "display_address": ["525 S Winchester Blvd", "San Jose, CA 95128"]}, "phone": "+14082472000", "display_phone": "(408) 247-2000", "distance": 4892.419070489247}, {"id": "_nRwxWRl5k9DgcrGqlqziQ", "alias": "enterprise-rent-a-car-san-jose-26", "name": "Enterprise Rent-A-Car", "image_url": "https://s3-media4.fl.yelpcdn.com/bphoto/aTDte9nXwfIfDert5LVgEw/o.jpg", "is_closed": false, "url": "https://www.yelp.com/biz/enterprise-rent-a-car-san-jose-26?adjust_creative=RbHAajSUNYKtX3IC6wzFGQ&utm_campaign=yelp_api_v3&utm_medium=api_v3_business_search&utm_source=RbHAajSUNYKtX3IC6wzFGQ", "review_count": 115, "categories": [{"alias": "carrental", "title": "Car Rental"}], "rating": 3.5, "coordinates": {"latitude": 37.3251214283658, "longitude": -121.900276243687}, "transactions": [], "location": {"address1": "282 Barack Obama Blvd", "address2": null, "address3": null, "city": "San Jose", "zip_code": "95110", "country": "US", "state": "CA", "display_address": ["282 Barack Obama Blvd", "San Jose, CA 95110"]}, "phone": "+14082864444", "display_phone": "(408) 286-4444", "distance": 7054.693665634049}, {"id": "E781b1TbpGVX5v2_jUtb_A", "alias": "hertz-car-sales-santa-clara-santa-clara", "name": "Hertz Car Sales - Santa Clara", "image_url": "https://s3-media2.fl.yelpcdn.com/bphoto/bEylU76E-de_yUYD746WXw/o.jpg", "is_closed": false, "url": "https://www.yelp.com/biz/hertz-car-sales-santa-clara-santa-clara?adjust_creative=RbHAajSUNYKtX3IC6wzFGQ&utm_campaign=yelp_api_v3&utm_medium=api_v3_business_search&utm_source=RbHAajSUNYKtX3IC6wzFGQ", "review_count": 122, "categories": [{"alias": "carrental", "title": "Car Rental"}, {"alias": "usedcardealers", "title": "Used Car Dealers"}, {"alias": "autoloanproviders", "title": "Auto Loan Providers"}], "rating": 3.5, "coordinates": {"latitude": 37.32362, "longitude": -121.97939}, "transactions": [], "location": {"address1": "4401 Stevens Creek Blvd", "address2": "", "address3": "", "city": "Santa Clara", "zip_code": "95051", "country": "US", "state": "CA", "display_address": ["4401 Stevens Creek Blvd", "Santa Clara, CA 95051"]}, "phone": "+14082961721", "display_phone": "(408) 296-1721", "distance": 4264.810152188768}, {"id": "hE9ne_-x5lCNXjPcnZm8gg", "alias": "penske-truck-rental-santa-clara", "name": "Penske Truck Rental", "image_url": "https://s3-media4.fl.yelpcdn.com/bphoto/yzg8kIyU9gginpEcr8S0QQ/o.jpg", "is_closed": false, "url": "https://www.yelp.com/biz/penske-truck-rental-santa-clara?adjust_creative=RbHAajSUNYKtX3IC6wzFGQ&utm_campaign=yelp_api_v3&utm_medium=api_v3_business_search&utm_source=RbHAajSUNYKtX3IC6wzFGQ", "review_count": 34, "categories": [{"alias": "truck_rental", "title": "Truck Rental"}, {"alias": "packingsupplies", "title": "Packing Supplies"}], "rating": 3.5, "coordinates": {"latitude": 37.36482, "longitude": -121.949824}, "transactions": [], "location": {"address1": "2380 Lafayette St", "address2": "", "address3": "", "city": "Santa Clara", "zip_code": "95050", "country": "US", "state": "CA", "display_address": ["2380 Lafayette St", "Santa Clara, CA 95050"]}, "phone": "+14087272120", "display_phone": "(408) 727-2120", "distance": 1541.651536476605}, {"id": "nh2ZeugcAis-frHPv3YN5Q", "alias": "the-grand-hotel-sunnyvale", "name": "The Grand", "image_url": "https://s3-media1.fl.yelpcdn.com/bphoto/QKD7KPLinDDw2o9acxhnWQ/o.jpg", "is_closed": false, "url": "https://www.yelp.com/biz/the-grand-hotel-sunnyvale?adjust_creative=RbHAajSUNYKtX3IC6wzFGQ&utm_campaign=yelp_api_v3&utm_medium=api_v3_business_search&utm_source=RbHAajSUNYKtX3IC6wzFGQ", "review_count": 246, "categories": [{"alias": "hotels", "title": "Hotels"}, {"alias": "venues", "title": "Venues & Event Spaces"}], "rating": 3.5, "coordinates": {"latitude": 37.371121803068, "longitude": -122.042851686478}, "transactions": [], "price": "$$", "location": {"address1": "865 W El Camino Real", "address2": "", "address3": "", "city": "Sunnyvale", "zip_code": "94087", "country": "US", "state": "CA", "display_address": ["865 W El Camino Real", "Sunnyvale, CA 94087"]}, "phone": "+14087208500", "display_phone": "(408) 720-8500", "distance": 6853.715519373827}, {"id": "zikJ_CpfbdSGEXg5GMzDCg", "alias": "mineta-san-jos\u00e9-international-airport-terminal-b-san-jose-2", "name": "Mineta San Jos\u00e9 International Airport - Terminal B", "image_url": "https://s3-media4.fl.yelpcdn.com/bphoto/YNvKWAM7ZEutv-GXEpqxbA/o.jpg", "is_closed": false, "url": "https://www.yelp.com/biz/mineta-san-jos%C3%A9-international-airport-terminal-b-san-jose-2?adjust_creative=RbHAajSUNYKtX3IC6wzFGQ&utm_campaign=yelp_api_v3&utm_medium=api_v3_business_search&utm_source=RbHAajSUNYKtX3IC6wzFGQ", "review_count": 144, "categories": [{"alias": "airportterminals", "title": "Airport Terminals"}], "rating": 3.5, "coordinates": {"latitude": 37.365974, "longitude": -121.925754}, "transactions": [], "location": {"address1": "1701 Airport Blvd", "address2": null, "address3": null, "city": "San Jose", "zip_code": "95131", "country": "US", "state": "CA", "display_address": ["1701 Airport Blvd", "San Jose, CA 95131"]}, "phone": "+14083923600", "display_phone": "(408) 392-3600", "distance": 3644.993345331486}], "total": 59, "region": {"center": {"longitude": -121.96643829345703, "latitude": 37.36059569170822}}}